{"type": "FeatureCollection", "features": [{"type": "Feature", "properties": {"Business Name": "5-SPOT", "Address": "1502 Queen Anne Ave N, Seattle, WA 98109, USA"}, "bbox": [-122.3580422302915, 47.6312034697085, -122.3553442697085, 47.6339014302915], "geometry": {"type": "Point", "coordinates": [-122.3566933, 47.6325525]}}, {"type": "Feature", "properties": {"Business Name": "AGAVE COCINA & TEQUILAS", "Address": "100 Republican St, Seattle, WA 98109, USA"}, "bbox": [-122.3563784802915, 47.62213671970849, -122.3536805197085, 47.62483468029149], "geometry": {"type": "Point", "coordinates": [-122.3550295, 47.6234857]}}, {"type": "Feature", "properties": {"Business Name": "ALACART LLC / WOK", "Address": "305 Harrison St, Seattle, WA 98109, USA"}, "bbox": [-122.3516243302915, 47.6191865697085, -122.3489263697085, 47.6218845302915], "geometry": {"type": "Point", "coordinates": [-122.3502753, 47.6205355]}}, {"type": "Feature", "properties": {"Business Name": "AMAZON RETAIL LLC", "Address": "500 9th Ave N, Seattle, WA 98109, USA"}, "bbox": [-122.3404923802915, 47.6225190697085, -122.3377944197085, 47.6252170302915], "geometry": {"type": "Point", "coordinates": [-122.3391434, 47.62386799999999]}}, {"type": "Feature", "properties": {"Business Name": "ANGELICA'S CATERING LLC", "Address": "521 1st Ave N, Seattle, WA 98109, USA"}, "bbox": [-122.3571343802915, 47.6225995197085, -122.3544364197085, 47.6252974802915], "geometry": {"type": "Point", "coordinates": [-122.3557854, 47.6239485]}}, {"type": "Feature", "properties": {"Business Name": "ARISTA", "Address": "1920 Dexter Ave N, Seattle, WA 98109, USA"}, "bbox": [-122.3435534302915, 47.6351168697085, -122.3408554697085, 47.6378148302915], "geometry": {"type": "Point", "coordinates": [-122.3422044, 47.6364658]}}, {"type": "Feature", "properties": {"Business Name": "B & E MEATS & SEAFOOD", "Address": "2401 Queen Anne Ave N, Seattle, WA 98109, USA"}, "bbox": [-122.3586549802915, 47.63841201970851, -122.3559570197085, 47.64110998029151], "geometry": {"type": "Point", "coordinates": [-122.357306, 47.63976100000001]}}, {"type": "Feature", "properties": {"Business Name": "BADABING", "Address": "400 9th Ave N, Seattle, WA 98109, USA"}, "bbox": [-122.3407319802915, 47.6209490197085, -122.3380340197085, 47.6236469802915], "geometry": {"type": "Point", "coordinates": [-122.339383, 47.622298]}}, {"type": "Feature", "properties": {"Business Name": "BALLARD PIZZA COMPANY", "Address": "500 9th Ave N #150, Seattle, WA 98109, USA"}, "bbox": [-122.3404923802915, 47.6225190197085, -122.3377944197085, 47.6252169802915], "geometry": {"type": "Point", "coordinates": [-122.3391434, 47.62386799999999]}}, {"type": "Feature", "properties": {"Business Name": "BERLINER DONER KEBAB", "Address": "428 Westlake Ave N #101, Seattle, WA 98109, USA"}, "bbox": [-122.3394369802915, 47.6215318197085, -122.3367390197085, 47.6242297802915], "geometry": {"type": "Point", "coordinates": [-122.338088, 47.6228808]}}, {"type": "Feature", "properties": {"Business Name": "BIG MARIOS 2", "Address": "815 5th Ave N, Seattle, WA 98109, USA"}, "bbox": [-122.3490870802915, 47.62547291970849, -122.3463891197085, 47.62817088029149], "geometry": {"type": "Point", "coordinates": [-122.3477381, 47.6268219]}}, {"type": "Feature", "properties": {"Business Name": "BON APPETIT @ AMAZON.COM / KITCHEN/ DOWNSTAIRS", "Address": "440 Terry Ave N, Seattle, WA 98109, USA"}, "bbox": [-122.3379020802915, 47.6215192197085, -122.3352041197085, 47.6242171802915], "geometry": {"type": "Point", "coordinates": [-122.3365531, 47.6228682]}}, {"type": "Feature", "properties": {"Business Name": "BON APPETIT @ AMAZON.COM /COFFEE BAR", "Address": "440 Terry Ave N, Seattle, WA 98109, USA"}, "bbox": [-122.3379020802915, 47.6215192197085, -122.3352041197085, 47.6242171802915], "geometry": {"type": "Point", "coordinates": [-122.3365531, 47.6228682]}}, {"type": "Feature", "properties": {"Business Name": "BON APPETIT @ AMAZON.COM/ SERVER", "Address": "440 Terry Ave N, Seattle, WA 98109, USA"}, "bbox": [-122.3379020802915, 47.6215192197085, -122.3352041197085, 47.6242171802915], "geometry": {"type": "Point", "coordinates": [-122.3365531, 47.6228682]}}, {"type": "Feature", "properties": {"Business Name": "BON APPETIT CATERING K1- AMAZON CATERING", "Address": "400 9th Ave N, Seattle, WA 98109, USA"}, "bbox": [-122.3407319802915, 47.6209490197085, -122.3380340197085, 47.6236469802915], "geometry": {"type": "Point", "coordinates": [-122.339383, 47.622298]}}, {"type": "Feature", "properties": {"Business Name": "BUCA DI BEPPO", "Address": "701 Westlake Ave N, Seattle, WA 98109, USA"}, "bbox": [-122.3404656802915, 47.6245875197085, -122.3377677197085, 47.6272854802915], "geometry": {"type": "Point", "coordinates": [-122.3391167, 47.62593649999999]}}, {"type": "Feature", "properties": {"Business Name": "CAFFE LADRO", "Address": "600 Queen Anne Ave N, Seattle, WA 98109, USA"}, "bbox": [-122.3578608802915, 47.6236872197085, -122.3551629197085, 47.6263851802915], "geometry": {"type": "Point", "coordinates": [-122.3565119, 47.6250362]}}, {"type": "Feature", "properties": {"Business Name": "CAFFE LADRO", "Address": "2205 Queen Anne Ave N, Seattle, WA 98109, USA"}, "bbox": [-122.3585667802915, 47.6373040197085, -122.3558688197085, 47.6400019802915], "geometry": {"type": "Point", "coordinates": [-122.3572178, 47.638653]}}, {"type": "Feature", "properties": {"Business Name": "CAFFE LADRO", "Address": "400 Fairview Ave N #101, Seattle, WA 98109, USA"}, "bbox": [-122.3352234802915, 47.6211566197085, -122.3325255197085, 47.62385458029149], "geometry": {"type": "Point", "coordinates": [-122.3338745, 47.6225056]}}, {"type": "Feature", "properties": {"Business Name": "CAFFE VITA", "Address": "813 5th Ave N, Seattle, WA 98109, USA"}, "bbox": [-122.3490968802915, 47.62543701970851, -122.3463989197085, 47.6281349802915], "geometry": {"type": "Point", "coordinates": [-122.3477479, 47.626786]}}, {"type": "Feature", "properties": {"Business Name": "CANTEEN VENDING @ NBBJ", "Address": "233 Yale Ave N, Seattle, WA 98109, USA"}, "bbox": [-122.3320486802915, 47.6188634197085, -122.3293507197085, 47.6215613802915], "geometry": {"type": "Point", "coordinates": [-122.3306997, 47.6202124]}}, {"type": "Feature", "properties": {"Business Name": "CATHOLIC COMM SERV-ALOHA", "Address": "1911 Aurora Ave N, Seattle, WA 98109, USA"}, "bbox": [-122.3455522802915, 47.6352528197085, -122.3428543197085, 47.6379507802915], "geometry": {"type": "Point", "coordinates": [-122.3442033, 47.6366018]}}, {"type": "Feature", "properties": {"Business Name": "CEDERBERG TEA HOUSE", "Address": "1417 Queen Anne Ave N #101b, Seattle, WA 98109, USA"}, "bbox": [-122.3583396802915, 47.6306873197085, -122.3556417197085, 47.6333852802915], "geometry": {"type": "Point", "coordinates": [-122.3569907, 47.6320363]}}, {"type": "Feature", "properties": {"Business Name": "CHERRY STREET COFFEE HOUSE", "Address": "500 Fairview Ave N #140, Seattle, WA 98109, USA"}, "bbox": [-122.3352693802915, 47.6221314197085, -122.3325714197085, 47.6248293802915], "geometry": {"type": "Point", "coordinates": [-122.3339204, 47.6234804]}}, {"type": "Feature", "properties": {"Business Name": "CHOCOLOPOLIS", "Address": "1527 Queen Anne Ave N, Seattle, WA 98109, USA"}, "bbox": [-122.3586293802915, 47.6319127197085, -122.3559314197085, 47.6346106802915], "geometry": {"type": "Point", "coordinates": [-122.3572804, 47.6332617]}}, {"type": "Feature", "properties": {"Business Name": "CITY CATERING COMPANY", "Address": "509 Dexter Ave N, Seattle, WA 98109, USA"}, "bbox": [-122.3441259802915, 47.6222145697085, -122.3414280197085, 47.6249125302915], "geometry": {"type": "Point", "coordinates": [-122.342777, 47.6235635]}}, {"type": "Feature", "properties": {"Business Name": "COURTYARD BY MARRIOTT", "Address": "925 Westlake Ave N, Seattle, WA 98109, USA"}, "bbox": [-122.3418025302915, 47.6263182197085, -122.3391045697085, 47.6290161802915], "geometry": {"type": "Point", "coordinates": [-122.3404535, 47.6276672]}}, {"type": "Feature", "properties": {"Business Name": "COURTYARD BY MARRIOTT- GROCERY", "Address": "925 Westlake Ave N, Seattle, WA 98109, USA"}, "bbox": [-122.3418025302915, 47.6263182197085, -122.3391045697085, 47.6290161802915], "geometry": {"type": "Point", "coordinates": [-122.3404535, 47.6276672]}}, {"type": "Feature", "properties": {"Business Name": "CREATIVELY PALEO", "Address": "521 1st Ave N, Seattle, WA 98109, USA"}, "bbox": [-122.3571343802915, 47.6225995197085, -122.3544364197085, 47.6252974802915], "geometry": {"type": "Point", "coordinates": [-122.3557854, 47.6239485]}}, {"type": "Feature", "properties": {"Business Name": "CROW", "Address": "823 5th Ave N, Seattle, WA 98109, USA"}, "bbox": [-122.3491794302915, 47.6256689697085, -122.3464814697085, 47.6283669302915], "geometry": {"type": "Point", "coordinates": [-122.3478304, 47.627018]}}, {"type": "Feature", "properties": {"Business Name": "CUSTOM SMOOTHIE & SPORTS NUTRITION", "Address": "1101 Dexter Ave N #100, Seattle, WA 98109, USA"}, "bbox": [-122.3442909802915, 47.62749661970851, -122.3415930197085, 47.63019458029151], "geometry": {"type": "Point", "coordinates": [-122.342942, 47.62884560000001]}}, {"type": "Feature", "properties": {"Business Name": "DAHLIA BAKERY WORKSHOP", "Address": "401 Westlake Ave N, Seattle, WA 98109, USA"}, "bbox": [-122.3402060802915, 47.6208683697085, -122.3375081197085, 47.6235663302915], "geometry": {"type": "Point", "coordinates": [-122.3388571, 47.6222174]}}, {"type": "Feature", "properties": {"Business Name": "DICK'S DRIVE IN", "Address": "500 Queen Anne Ave N, Seattle, WA 98109, USA"}, "bbox": [-122.3577320302915, 47.62211681970849, -122.3550340697085, 47.62481478029149], "geometry": {"type": "Point", "coordinates": [-122.356383, 47.6234658]}}, {"type": "Feature", "properties": {"Business Name": "DOUBLE HELIX CAFE  @ FHCRC", "Address": "1100 Fairview Ave N, Seattle, WA 98109, USA"}, "bbox": [-122.3329574802915, 47.6259634197085, -122.3302595197085, 47.6286613802915], "geometry": {"type": "Point", "coordinates": [-122.3316085, 47.6273124]}}, {"type": "Feature", "properties": {"Business Name": "DOUBLE HELIX ESPRESSO @ FHCRC", "Address": "1100 Fairview Ave N, Seattle, WA 98109, USA"}, "bbox": [-122.3329574802915, 47.6259634197085, -122.3302595197085, 47.6286613802915], "geometry": {"type": "Point", "coordinates": [-122.3316085, 47.6273124]}}, {"type": "Feature", "properties": {"Business Name": "DUKE'S LAKE UNION CHOWDER HOUSE", "Address": "901 Fairview Ave N, Seattle, WA 98109, USA"}, "bbox": [-122.3351421302915, 47.6265951697085, -122.3324441697085, 47.6292931302915], "geometry": {"type": "Point", "coordinates": [-122.3337932, 47.62794419999999]}}, {"type": "Feature", "properties": {"Business Name": "EDEN HILL", "Address": "2209 Queen Anne Ave N, Seattle, WA 98109, USA"}, "bbox": [-122.3585567802915, 47.6373360197085, -122.3558588197085, 47.6400339802915], "geometry": {"type": "Point", "coordinates": [-122.3572078, 47.638685]}}, {"type": "Feature", "properties": {"Business Name": "EL DIABLO COFFEE CO", "Address": "1811 Queen Anne Ave N #101, Seattle, WA 98109, USA"}, "bbox": [-122.3586927802915, 47.63385441970849, -122.3559948197085, 47.63655238029149], "geometry": {"type": "Point", "coordinates": [-122.3573438, 47.63520339999999]}}, {"type": "Feature", "properties": {"Business Name": "ELECTRIC CLOUD COFFEE", "Address": "318 Nickerson St, Seattle, WA 98109, USA"}, "bbox": [-122.3515699802915, 47.6452820197085, -122.3488720197085, 47.6479799802915], "geometry": {"type": "Point", "coordinates": [-122.350221, 47.646631]}}, {"type": "Feature", "properties": {"Business Name": "ELTANA", "Address": "305 Harrison St, Seattle, WA 98109, USA"}, "bbox": [-122.3516243302915, 47.6191865697085, -122.3489263697085, 47.6218845302915], "geometry": {"type": "Point", "coordinates": [-122.3502753, 47.6205355]}}, {"type": "Feature", "properties": {"Business Name": "FACEBOOK, INC", "Address": "1101 Dexter Ave N, Seattle, WA 98109, USA"}, "bbox": [-122.3442910302915, 47.6274966697085, -122.3415930697085, 47.6301946302915], "geometry": {"type": "Point", "coordinates": [-122.342942, 47.62884560000001]}}, {"type": "Feature", "properties": {"Business Name": "FARESTART COFFEE BAR, PLAN B, LEVEL 1, STE 150", "Address": "399 Fairview Ave, Seattle, WA 98109, USA"}, "bbox": [-122.3356710802915, 47.6206437197085, -122.3329731197085, 47.6233416802915], "geometry": {"type": "Point", "coordinates": [-122.3343127, 47.6219929]}}, {"type": "Feature", "properties": {"Business Name": "FIVE HOOKS FISH GRILL", "Address": "2232 Queen Anne Ave N, Seattle, WA 98109, USA"}, "bbox": [-122.3579519802915, 47.6380690197085, -122.3552540197085, 47.6407669802915], "geometry": {"type": "Point", "coordinates": [-122.356603, 47.639418]}}, {"type": "Feature", "properties": {"Business Name": "FOUNTAINS RESTAURANT", "Address": "200 2nd Ave N, Seattle, WA 98109, USA"}, "bbox": [-122.3527199802915, 47.6180870197085, -122.3500220197085, 47.6207849802915], "geometry": {"type": "Point", "coordinates": [-122.351371, 47.619436]}}, {"type": "Feature", "properties": {"Business Name": "GINGER CATERERS LLC", "Address": "521 1st Ave N, Seattle, WA 98109, USA"}, "bbox": [-122.3571343802915, 47.6225995197085, -122.3544364197085, 47.6252974802915], "geometry": {"type": "Point", "coordinates": [-122.3557854, 47.6239485]}}, {"type": "Feature", "properties": {"Business Name": "HAMPTON INN", "Address": "700 5th Ave N, Seattle, WA 98109, USA"}, "bbox": [-122.3482150302915, 47.62455121970849, -122.3455170697085, 47.62724918029149], "geometry": {"type": "Point", "coordinates": [-122.346866, 47.6259002]}}, {"type": "Feature", "properties": {"Business Name": "HOMEGROWN", "Address": "208 Westlake Ave N, Seattle, WA 98109, USA"}, "bbox": [-122.3395837802915, 47.6188324197085, -122.3368858197085, 47.6215303802915], "geometry": {"type": "Point", "coordinates": [-122.3382348, 47.6201814]}}, {"type": "Feature", "properties": {"Business Name": "HOW TO COOK A WOLF", "Address": "2208 Queen Anne Ave N, Seattle, WA 98109, USA"}, "bbox": [-122.3579838802915, 47.6373727197085, -122.3552859197085, 47.6400706802915], "geometry": {"type": "Point", "coordinates": [-122.3566349, 47.6387217]}}, {"type": "Feature", "properties": {"Business Name": "HUMAN NUTRITION LAB @ FHCRC", "Address": "1100 Fairview Ave N, Seattle, WA 98109, USA"}, "bbox": [-122.3329574802915, 47.6259634197085, -122.3302595197085, 47.6286613802915], "geometry": {"type": "Point", "coordinates": [-122.3316085, 47.6273124]}}, {"type": "Feature", "properties": {"Business Name": "HYATT PLACE HOTEL  - RESTAURANT", "Address": "110 6th Ave N, Seattle, WA 98109, USA"}, "bbox": [-122.3460469802915, 47.6176354197085, -122.3433490197085, 47.6203333802915], "geometry": {"type": "Point", "coordinates": [-122.344698, 47.6189844]}}, {"type": "Feature", "properties": {"Business Name": "JUJU BEET", "Address": "1091 Thomas St a, Seattle, WA 98109, USA"}, "bbox": [-122.3373147802915, 47.61921381970849, -122.3346168197085, 47.62191178029149], "geometry": {"type": "Point", "coordinates": [-122.3359658, 47.62056279999999]}}, {"type": "Feature", "properties": {"Business Name": "KABAB", "Address": "305 Harrison St #219, Seattle, WA 98109, USA"}, "bbox": [-122.3516242802915, 47.6191865197085, -122.3489263197085, 47.62188448029149], "geometry": {"type": "Point", "coordinates": [-122.3502753, 47.6205355]}}, {"type": "Feature", "properties": {"Business Name": "KAI MARKET - DELI", "Address": "400 Fairview Ave N p001, Seattle, WA 98109, USA"}, "bbox": [-122.3352234802915, 47.6211566197085, -122.3325255197085, 47.62385458029149], "geometry": {"type": "Point", "coordinates": [-122.3338745, 47.6225056]}}, {"type": "Feature", "properties": {"Business Name": "KAI MARKET - GROCERY/ SEAFOOD", "Address": "400 Fairview Ave N p001, Seattle, WA 98109, USA"}, "bbox": [-122.3352234802915, 47.6211566197085, -122.3325255197085, 47.62385458029149], "geometry": {"type": "Point", "coordinates": [-122.3338745, 47.6225056]}}, {"type": "Feature", "properties": {"Business Name": "KEY ARENA - FAST LANE (STAND 111)", "Address": "305 Harrison St, Seattle, WA 98109, USA"}, "bbox": [-122.3516243302915, 47.6191865697085, -122.3489263697085, 47.6218845302915], "geometry": {"type": "Point", "coordinates": [-122.3502753, 47.6205355]}}, {"type": "Feature", "properties": {"Business Name": "KEY ARENA - FAST LN PIZZA (STAND 28)", "Address": "305 Harrison St, Seattle, WA 98109, USA"}, "bbox": [-122.3516243302915, 47.6191865697085, -122.3489263697085, 47.6218845302915], "geometry": {"type": "Point", "coordinates": [-122.3502753, 47.6205355]}}, {"type": "Feature", "properties": {"Business Name": "KEY ARENA - MAIN KITCHEN", "Address": "305 Harrison St, Seattle, WA 98109, USA"}, "bbox": [-122.3516243302915, 47.6191865697085, -122.3489263697085, 47.6218845302915], "geometry": {"type": "Point", "coordinates": [-122.3502753, 47.6205355]}}, {"type": "Feature", "properties": {"Business Name": "KEY ARENA - SEATTLE GRILL (STAND 110)", "Address": "305 Harrison St, Seattle, WA 98109, USA"}, "bbox": [-122.3516243302915, 47.6191865697085, -122.3489263697085, 47.6218845302915], "geometry": {"type": "Point", "coordinates": [-122.3502753, 47.6205355]}}, {"type": "Feature", "properties": {"Business Name": "KEY ARENA - SEATTLE GRILL (STAND 118)", "Address": "305 Harrison St, Seattle, WA 98109, USA"}, "bbox": [-122.3516243302915, 47.6191865697085, -122.3489263697085, 47.6218845302915], "geometry": {"type": "Point", "coordinates": [-122.3502753, 47.6205355]}}, {"type": "Feature", "properties": {"Business Name": "KEY ARENA - SEATTLE GRILL (STAND 124)", "Address": "305 Harrison St, Seattle, WA 98109, USA"}, "bbox": [-122.3516243302915, 47.6191865697085, -122.3489263697085, 47.6218845302915], "geometry": {"type": "Point", "coordinates": [-122.3502753, 47.6205355]}}, {"type": "Feature", "properties": {"Business Name": "KOMO HONOR COFFEE & TEA", "Address": "100 4th Ave N, Seattle, WA 98109, USA"}, "bbox": [-122.3498746802915, 47.6176242197085, -122.3471767197085, 47.6203221802915], "geometry": {"type": "Point", "coordinates": [-122.3485257, 47.6189732]}}, {"type": "Feature", "properties": {"Business Name": "LA TOSCANELLA BAKERY", "Address": "116 Westlake Ave N, Seattle, WA 98109, USA"}, "bbox": [-122.3394749802915, 47.6176935197085, -122.3367770197085, 47.6203914802915], "geometry": {"type": "Point", "coordinates": [-122.338126, 47.6190425]}}, {"type": "Feature", "properties": {"Business Name": "LAREDOS", "Address": "555 Aloha St, Seattle, WA 98109, USA"}, "bbox": [-122.3472421302915, 47.6256688697085, -122.3445441697085, 47.62836683029149], "geometry": {"type": "Point", "coordinates": [-122.3458931, 47.6270178]}}, {"type": "Feature", "properties": {"Business Name": "LLOYD MARTIN", "Address": "1525 Queen Anne Ave N, Seattle, WA 98109, USA"}, "bbox": [-122.3586263802915, 47.6318252197085, -122.3559284197085, 47.6345231802915], "geometry": {"type": "Point", "coordinates": [-122.3572774, 47.6331742]}}, {"type": "Feature", "properties": {"Business Name": "LO-FI PERFORMANCE GALLERY", "Address": "429 Eastlake Ave E, Seattle, WA 98109, USA"}, "bbox": [-122.3309053802915, 47.62161451970849, -122.3282074197085, 47.62431248029149], "geometry": {"type": "Point", "coordinates": [-122.3295564, 47.6229635]}}, {"type": "Feature", "properties": {"Business Name": "M BAR LLC", "Address": "400 Fairview Ave N, Seattle, WA 98109, USA"}, "bbox": [-122.3352234802915, 47.6211566197085, -122.3325255197085, 47.62385458029149], "geometry": {"type": "Point", "coordinates": [-122.3338745, 47.6225056]}}, {"type": "Feature", "properties": {"Business Name": "MAHARIS MEDITERRANEAN CUISINE (KC494) @ 206 334 6767", "Address": "15 Nickerson St, Seattle, WA 98109, USA"}, "bbox": [-122.3582590302915, 47.6479151197085, -122.3555610697085, 47.6506130802915], "geometry": {"type": "Point", "coordinates": [-122.35691, 47.6492641]}}, {"type": "Feature", "properties": {"Business Name": "MAIN KITCHEN BON APPETIT MGT COMPANY - GATES FOUNDATION", "Address": "500 5th Ave N, Seattle, WA 98109, USA"}, "bbox": [-122.3477057302915, 47.6223516697085, -122.3450077697085, 47.6250496302915], "geometry": {"type": "Point", "coordinates": [-122.3463567, 47.6237006]}}, {"type": "Feature", "properties": {"Business Name": "MANHATTAN EXPRESS DELI GROCERY", "Address": "631 Queen Anne Ave N, Seattle, WA 98109, USA"}, "bbox": [-122.3584599802915, 47.6241470197085, -122.3557620197085, 47.62684498029149], "geometry": {"type": "Point", "coordinates": [-122.357111, 47.625496]}}, {"type": "Feature", "properties": {"Business Name": "MASHAWI", "Address": "366 Roy St, Seattle, WA 98109, USA"}, "bbox": [-122.3506083302915, 47.6242512197085, -122.3479103697085, 47.6269491802915], "geometry": {"type": "Point", "coordinates": [-122.3492594, 47.6256002]}}, {"type": "Feature", "properties": {"Business Name": "MCDONALD'S #5573", "Address": "222 5th Ave N, Seattle, WA 98109, USA"}, "bbox": [-122.3484815802915, 47.6191541197085, -122.3457836197085, 47.6218520802915], "geometry": {"type": "Point", "coordinates": [-122.3471326, 47.62050310000001]}}, {"type": "Feature", "properties": {"Business Name": "METROPOLITAN DELI", "Address": "1287 Westlake Ave N, Seattle, WA 98109, USA"}, "bbox": [-122.3428654802915, 47.63076551970851, -122.3401675197085, 47.63346348029151], "geometry": {"type": "Point", "coordinates": [-122.3415165, 47.63211450000001]}}, {"type": "Feature", "properties": {"Business Name": "MOD SUPERFAST PIZZA", "Address": "305 Harrison St #221, Seattle, WA 98109, USA"}, "bbox": [-122.3516242802915, 47.6191865197085, -122.3489263197085, 47.62188448029149], "geometry": {"type": "Point", "coordinates": [-122.3502753, 47.6205355]}}, {"type": "Feature", "properties": {"Business Name": "MORRISONS NORTH STAR MARI", "Address": "2732 Westlake Ave N, Seattle, WA 98109, USA"}, "bbox": [-122.3465990802915, 47.64363691970851, -122.3439011197085, 47.6463348802915], "geometry": {"type": "Point", "coordinates": [-122.3452501, 47.6449859]}}, {"type": "Feature", "properties": {"Business Name": "NAANSENSE SEATTLE,LLC (KC704)", "Address": "521 1st Ave N, Seattle, WA 98109, USA"}, "bbox": [-122.3571343802915, 47.6225995197085, -122.3544364197085, 47.6252974802915], "geometry": {"type": "Point", "coordinates": [-122.3557854, 47.6239485]}}, {"type": "Feature", "properties": {"Business Name": "NANA'S MEXICAN FAMILY RESTAURANT", "Address": "1825 Queen Anne Ave N, Seattle, WA 98109, USA"}, "bbox": [-122.3587163302915, 47.6342042697085, -122.3560183697085, 47.63690223029149], "geometry": {"type": "Point", "coordinates": [-122.3573673, 47.6355533]}}, {"type": "Feature", "properties": {"Business Name": "NOLLIES", "Address": "1165 Harrison St, Seattle, WA 98109, USA"}, "bbox": [-122.3348600302915, 47.6204700697085, -122.3321620697085, 47.6231680302915], "geometry": {"type": "Point", "coordinates": [-122.3335111, 47.621819]}}, {"type": "Feature", "properties": {"Business Name": "NYC DELI", "Address": "903 Dexter Ave N, Seattle, WA 98109, USA"}, "bbox": [-122.3439644802915, 47.62597901970851, -122.3412665197085, 47.62867698029151], "geometry": {"type": "Point", "coordinates": [-122.3426155, 47.62732800000001]}}, {"type": "Feature", "properties": {"Business Name": "OBASAN", "Address": "11 Mercer St, Seattle, WA 98109, USA"}, "bbox": [-122.3575091802915, 47.6230362197085, -122.3548112197085, 47.6257341802915], "geometry": {"type": "Point", "coordinates": [-122.3561602, 47.6243852]}}, {"type": "Feature", "properties": {"Business Name": "OLD STOVE", "Address": "1314 Denny Way, Seattle, WA 98109, USA"}, "bbox": [-122.3309716302915, 47.6173676197085, -122.3282736697085, 47.6200655802915], "geometry": {"type": "Point", "coordinates": [-122.3296226, 47.6187166]}}, {"type": "Feature", "properties": {"Business Name": "ON THE FLY", "Address": "300 Westlake Ave N, Seattle, WA 98109, USA"}, "bbox": [-122.3395424802915, 47.61973681970849, -122.3368445197085, 47.62243478029149], "geometry": {"type": "Point", "coordinates": [-122.3381935, 47.6210858]}}, {"type": "Feature", "properties": {"Business Name": "ORRAPIN", "Address": "10 Boston St, Seattle, WA 98109, USA"}, "bbox": [-122.3578392802915, 47.6372049197085, -122.3551413197085, 47.63990288029149], "geometry": {"type": "Point", "coordinates": [-122.3564903, 47.6385539]}}, {"type": "Feature", "properties": {"Business Name": "OTHER COAST CAFE", "Address": "12 Mercer St, Seattle, WA 98109, USA"}, "bbox": [-122.3575107802915, 47.6233718197085, -122.3548128197085, 47.62606978029149], "geometry": {"type": "Point", "coordinates": [-122.3561618, 47.6247208]}}, {"type": "Feature", "properties": {"Business Name": "OUNCE OF PREVENTION @ FHCRC", "Address": "1100 Fairview Ave N, Seattle, WA 98109, USA"}, "bbox": [-122.3329574802915, 47.6259634197085, -122.3302595197085, 47.6286613802915], "geometry": {"type": "Point", "coordinates": [-122.3316085, 47.6273124]}}, {"type": "Feature", "properties": {"Business Name": "PACIFIC SCIENCE CENTER / IMAX CONCESSION STAND", "Address": "200 2nd Ave N, Seattle, WA 98109, USA"}, "bbox": [-122.3527199802915, 47.6180870197085, -122.3500220197085, 47.6207849802915], "geometry": {"type": "Point", "coordinates": [-122.351371, 47.619436]}}, {"type": "Feature", "properties": {"Business Name": "PAPA MURPHY'S", "Address": "618 1st Ave N, Seattle, WA 98109, USA"}, "bbox": [-122.3560440802915, 47.6236504197085, -122.3533461197085, 47.6263483802915], "geometry": {"type": "Point", "coordinates": [-122.3546951, 47.6249994]}}, {"type": "Feature", "properties": {"Business Name": "PHO CYCLO CAFE", "Address": "900 Dexter Ave N, Seattle, WA 98109, USA"}, "bbox": [-122.3433014802915, 47.62591111970851, -122.3406035197085, 47.62860908029151], "geometry": {"type": "Point", "coordinates": [-122.3419525, 47.62726010000001]}}, {"type": "Feature", "properties": {"Business Name": "PHO VIET ANH", "Address": "372 Roy St, Seattle, WA 98109, USA"}, "bbox": [-122.3504666302915, 47.6242519697085, -122.3477686697085, 47.6269499302915], "geometry": {"type": "Point", "coordinates": [-122.3491176, 47.625601]}}, {"type": "Feature", "properties": {"Business Name": "PINEAPPLE ESPRESS @ MAXWELL HOTEL", "Address": "300 Roy St, Seattle, WA 98109, USA"}, "bbox": [-122.3521642302915, 47.6243305697085, -122.3494662697085, 47.6270285302915], "geometry": {"type": "Point", "coordinates": [-122.3508152, 47.6256796]}}, {"type": "Feature", "properties": {"Business Name": "PIZZA HUT #13896", "Address": "2231 Queen Anne Ave N, Seattle, WA 98109, USA"}, "bbox": [-122.3585694302915, 47.6379409697085, -122.3558714697085, 47.64063893029149], "geometry": {"type": "Point", "coordinates": [-122.3572205, 47.63929]}}, {"type": "Feature", "properties": {"Business Name": "PLAID PANTRIES INC #309", "Address": "720 Taylor Ave N, Seattle, WA 98109, USA"}, "bbox": [-122.3470982802915, 47.6246775197085, -122.3444003197085, 47.6273754802915], "geometry": {"type": "Point", "coordinates": [-122.3457493, 47.62602649999999]}}, {"type": "Feature", "properties": {"Business Name": "PRESSED JUICERY, INC", "Address": "604 1st Ave N #107, Seattle, WA 98109, USA"}, "bbox": [-122.3565699802915, 47.6237275197085, -122.3538720197085, 47.62642548029149], "geometry": {"type": "Point", "coordinates": [-122.355221, 47.6250765]}}, {"type": "Feature", "properties": {"Business Name": "QFC #881 -  MEAT SHOP", "Address": "500 Mercer St, Seattle, WA 98109, USA"}, "bbox": [-122.3485745802915, 47.6233850197085, -122.3458766197085, 47.6260829802915], "geometry": {"type": "Point", "coordinates": [-122.3472256, 47.624734]}}, {"type": "Feature", "properties": {"Business Name": "QFC #881 -  STARBUCKS", "Address": "500 Mercer St, Seattle, WA 98109, USA"}, "bbox": [-122.3485745802915, 47.6233850197085, -122.3458766197085, 47.6260829802915], "geometry": {"type": "Point", "coordinates": [-122.3472256, 47.624734]}}, {"type": "Feature", "properties": {"Business Name": "QUEEN ANNE ELEMENTARY", "Address": "411 Boston St, Seattle, WA 98109, USA"}, "bbox": [-122.3502656802915, 47.6365850697085, -122.3475677197085, 47.63928303029149], "geometry": {"type": "Point", "coordinates": [-122.3489167, 47.6379341]}}, {"type": "Feature", "properties": {"Business Name": "ROCOCO COFFEE / BON APPETIT", "Address": "207 Boren Ave N, Seattle, WA 98109, USA"}, "bbox": [-122.3376052802915, 47.6188240197085, -122.3349073197085, 47.6215219802915], "geometry": {"type": "Point", "coordinates": [-122.3362563, 47.620173]}}, {"type": "Feature", "properties": {"Business Name": "RUBIA ESPRESSO", "Address": "1100 Eastlake Ave E, Seattle, WA 98109, USA"}, "bbox": [-122.3300870802915, 47.62743056970849, -122.3273891197085, 47.63012853029149], "geometry": {"type": "Point", "coordinates": [-122.3287381, 47.62877950000001]}}, {"type": "Feature", "properties": {"Business Name": "SANDWICH TREE, THE", "Address": "111 Queen Anne Ave N, Seattle, WA 98109, USA"}, "bbox": [-122.3584619302915, 47.6175390697085, -122.3557639697085, 47.6202370302915], "geometry": {"type": "Point", "coordinates": [-122.3571129, 47.6188881]}}, {"type": "Feature", "properties": {"Business Name": "SEATTLE ARTISAN FOODS, LLC", "Address": "521 1st Ave N, Seattle, WA 98109, USA"}, "bbox": [-122.3571343802915, 47.6225995197085, -122.3544364197085, 47.6252974802915], "geometry": {"type": "Point", "coordinates": [-122.3557854, 47.6239485]}}, {"type": "Feature", "properties": {"Business Name": "SEATTLE COUNTRY DAY SCHOOL", "Address": "2619 4th Ave N, Seattle, WA 98109, USA"}, "bbox": [-122.3516396802915, 47.6422675197085, -122.3489417197085, 47.6449654802915], "geometry": {"type": "Point", "coordinates": [-122.3502907, 47.6436165]}}, {"type": "Feature", "properties": {"Business Name": "SIFF", "Address": "511 Queen Anne Ave N, Seattle, WA 98109, USA"}, "bbox": [-122.3583268802915, 47.6222680197085, -122.3556289197085, 47.6249659802915], "geometry": {"type": "Point", "coordinates": [-122.3569779, 47.623617]}}, {"type": "Feature", "properties": {"Business Name": "SOLO BAR & GALLERY", "Address": "200 Roy St, Seattle, WA 98109, USA"}, "bbox": [-122.3537205802915, 47.6243466197085, -122.3510226197085, 47.6270445802915], "geometry": {"type": "Point", "coordinates": [-122.3523716, 47.6256956]}}, {"type": "Feature", "properties": {"Business Name": "SOUTH LAKE UNION MEAT & BREAD LLC", "Address": "400 Fairview Ave N, Seattle, WA 98109, USA"}, "bbox": [-122.3352234802915, 47.6211566197085, -122.3325255197085, 47.62385458029149], "geometry": {"type": "Point", "coordinates": [-122.3338745, 47.6225056]}}, {"type": "Feature", "properties": {"Business Name": "SPROUT", "Address": "501 Fairview Ave N, Seattle, WA 98109, USA"}, "bbox": [-122.3362139302915, 47.6222818697085, -122.3335159697085, 47.6249798302915], "geometry": {"type": "Point", "coordinates": [-122.3348649, 47.6236308]}}, {"type": "Feature", "properties": {"Business Name": "STARBUCKS", "Address": "1200 Westlake Ave N, Seattle, WA 98109, USA"}, "bbox": [-122.3410771802915, 47.6286436197085, -122.3383792197085, 47.6313415802915], "geometry": {"type": "Point", "coordinates": [-122.3397282, 47.6299926]}}, {"type": "Feature", "properties": {"Business Name": "STARBUCKS COFFEE #23730", "Address": "515 Westlake Ave N, Seattle, WA 98109, USA"}, "bbox": [-122.3402515802915, 47.6228304197085, -122.3375536197085, 47.6255283802915], "geometry": {"type": "Point", "coordinates": [-122.3389026, 47.6241794]}}, {"type": "Feature", "properties": {"Business Name": "STARBUCKS COFFEE #314", "Address": "2135 Queen Anne Ave N, Seattle, WA 98109, USA"}, "bbox": [-122.3586742802915, 47.6368932197085, -122.3559763197085, 47.6395911802915], "geometry": {"type": "Point", "coordinates": [-122.3573253, 47.6382422]}}, {"type": "Feature", "properties": {"Business Name": "STARBUCKS COFFEE #3355", "Address": "421 Queen Anne Ave N, Seattle, WA 98109, USA"}, "bbox": [-122.3584393802915, 47.6215990197085, -122.3557414197085, 47.6242969802915], "geometry": {"type": "Point", "coordinates": [-122.3570904, 47.622948]}}, {"type": "Feature", "properties": {"Business Name": "SUBWAY #27239", "Address": "97 Denny Way, Seattle, WA 98109, USA"}, "bbox": [-122.3568880802915, 47.6170708197085, -122.3541901197085, 47.6197687802915], "geometry": {"type": "Point", "coordinates": [-122.3555391, 47.6184198]}}, {"type": "Feature", "properties": {"Business Name": "SUVAIFOODS LLC @ 425-296-4195", "Address": "Village Theatre First Stage, Front St N, Issaquah, WA 98027, USA"}, "bbox": [-122.0376459802915, 47.53027761970851, -122.0349480197085, 47.53297558029151], "geometry": {"type": "Point", "coordinates": [-122.036297, 47.5316266]}}, {"type": "Feature", "properties": {"Business Name": "SWEDISH CULTURAL CENTER", "Address": "1920 Dexter Ave N, Seattle, WA 98109, USA"}, "bbox": [-122.3435534302915, 47.6351168697085, -122.3408554697085, 47.6378148302915], "geometry": {"type": "Point", "coordinates": [-122.3422044, 47.6364658]}}, {"type": "Feature", "properties": {"Business Name": "T.S. MCHUGH'S", "Address": "21 Mercer St, Seattle, WA 98109, USA"}, "bbox": [-122.3572683302915, 47.62302431970851, -122.3545703697085, 47.62572228029151], "geometry": {"type": "Point", "coordinates": [-122.3559193, 47.62437329999999]}}, {"type": "Feature", "properties": {"Business Name": "TACOS CHUKIS @ SLU", "Address": "830 Dexter Ave N, Seattle, WA 98109, USA"}, "bbox": [-122.3433117802915, 47.6256187197085, -122.3406138197085, 47.6283166802915], "geometry": {"type": "Point", "coordinates": [-122.3419628, 47.62696769999999]}}, {"type": "Feature", "properties": {"Business Name": "THE GRILLED CHEESE EXPERIENCE", "Address": "434A Yale Ave N, Seattle, WA 98109, USA"}, "bbox": [-122.3316153802915, 47.62166131970849, -122.3289174197085, 47.62435928029149], "geometry": {"type": "Point", "coordinates": [-122.3302664, 47.6230103]}}, {"type": "Feature", "properties": {"Business Name": "THE TOLEDO", "Address": "1628 Dexter Ave N b, Seattle, WA 98109, USA"}, "bbox": [-122.3434027802915, 47.63249071970849, -122.3407048197085, 47.63518868029149], "geometry": {"type": "Point", "coordinates": [-122.3420538, 47.6338397]}}, {"type": "Feature", "properties": {"Business Name": "TOP POT DOUGHNUTS", "Address": "590 Terry Ave N, Seattle, WA 98109, USA"}, "bbox": [-122.3380906802915, 47.6228957197085, -122.3353927197085, 47.6255936802915], "geometry": {"type": "Point", "coordinates": [-122.3367417, 47.6242447]}}, {"type": "Feature", "properties": {"Business Name": "TROPHY CUPCAKES", "Address": "400 Fairview Ave N #109, Seattle, WA 98109, USA"}, "bbox": [-122.3352234802915, 47.6211566197085, -122.3325255197085, 47.62385458029149], "geometry": {"type": "Point", "coordinates": [-122.3338745, 47.6225056]}}, {"type": "Feature", "properties": {"Business Name": "TROY BLOCK CAFE/COFFEE BAR, PLAN A, LEVEL 1", "Address": "399 Fairview Ave, Seattle, WA 98109, USA"}, "bbox": [-122.3356710802915, 47.6206437197085, -122.3329731197085, 47.6233416802915], "geometry": {"type": "Point", "coordinates": [-122.3343127, 47.6219929]}}, {"type": "Feature", "properties": {"Business Name": "TROY BLOCK REST/BAR, PLAN B, LEVEL P1", "Address": "399 Fairview Ave, Seattle, WA 98109, USA"}, "bbox": [-122.3356710802915, 47.6206437197085, -122.3329731197085, 47.6233416802915], "geometry": {"type": "Point", "coordinates": [-122.3343127, 47.6219929]}}, {"type": "Feature", "properties": {"Business Name": "UNION CAFE @ AMAZON", "Address": "501 Fairview Ave N, Seattle, WA 98109, USA"}, "bbox": [-122.3362139302915, 47.6222818697085, -122.3335159697085, 47.6249798302915], "geometry": {"type": "Point", "coordinates": [-122.3348649, 47.6236308]}}, {"type": "Feature", "properties": {"Business Name": "UPTOWN ESPRESSO/BAKERY", "Address": "525 Queen Anne Ave N, Seattle, WA 98109, USA"}, "bbox": [-122.3582774802915, 47.6226725197085, -122.3555795197085, 47.6253704802915], "geometry": {"type": "Point", "coordinates": [-122.3569285, 47.6240215]}}, {"type": "Feature", "properties": {"Business Name": "VIN CO", "Address": "198 Nickerson St, Seattle, WA 98109, USA"}, "bbox": [-122.3541201802915, 47.64666211970849, -122.3514222197085, 47.64936008029149], "geometry": {"type": "Point", "coordinates": [-122.3527712, 47.6480111]}}, {"type": "Feature", "properties": {"Business Name": "WHITE SWAN PUBLIC HOUSE", "Address": "1001 Fairview Ave N, Seattle, WA 98109, USA"}, "bbox": [-122.3330877802915, 47.6274214197085, -122.3303898197085, 47.6301193802915], "geometry": {"type": "Point", "coordinates": [-122.3317388, 47.6287704]}}, {"type": "Feature", "properties": {"Business Name": "YALE ESPRESSO BAR @ FHCRC", "Address": "1100 Fairview Ave N, Seattle, WA 98109, USA"}, "bbox": [-122.3329574802915, 47.6259634197085, -122.3302595197085, 47.6286613802915], "geometry": {"type": "Point", "coordinates": [-122.3316085, 47.6273124]}}, {"type": "Feature", "properties": {"Business Name": "YUMMYLICIOUS, LLC", "Address": "521 1st Ave N, Seattle, WA 98109, USA"}, "bbox": [-122.3571343802915, 47.6225995197085, -122.3544364197085, 47.6252974802915], "geometry": {"type": "Point", "coordinates": [-122.3557854, 47.6239485]}}, {"type": "Feature", "properties": {"Business Name": "ZAW", "Address": "1635 Queen Anne Ave N, Seattle, WA 98109, USA"}, "bbox": [-122.3587159802915, 47.6332410197085, -122.3560180197085, 47.63593898029149], "geometry": {"type": "Point", "coordinates": [-122.357367, 47.63459]}}, {"type": "Feature", "properties": {"Business Name": "ZEEKS PIZZA INC", "Address": "419 Denny Way, Seattle, WA 98109, USA"}, "bbox": [-122.3492288802915, 47.6170244197085, -122.3465309197085, 47.6197223802915], "geometry": {"type": "Point", "coordinates": [-122.3478799, 47.6183734]}}, {"type": "Feature", "properties": {"Business Name": "AFC SUSHI @ QFC #881", "Address": "500 Mercer St, Seattle, WA 98109, USA"}, "bbox": [-122.3485745802915, 47.6233850197085, -122.3458766197085, 47.6260829802915], "geometry": {"type": "Point", "coordinates": [-122.3472256, 47.624734]}}, {"type": "Feature", "properties": {"Business Name": "BOAT HOUSE DELI", "Address": "1818 Westlake Ave N, Seattle, WA 98109, USA"}, "bbox": [-122.3411362302915, 47.63402791970849, -122.3384382697085, 47.63672588029149], "geometry": {"type": "Point", "coordinates": [-122.3397872, 47.6353769]}}, {"type": "Feature", "properties": {"Business Name": "DOMINO'S PIZZA #7063", "Address": "714 Taylor Ave N, Seattle, WA 98109, USA"}, "bbox": [-122.3470894802915, 47.6245632197085, -122.3443915197085, 47.6272611802915], "geometry": {"type": "Point", "coordinates": [-122.3457405, 47.62591219999999]}}, {"type": "Feature", "properties": {"Business Name": "GREAT NORTHWEST SOUP CO, THE", "Address": "340 Westlake Ave N, Seattle, WA 98109, USA"}, "bbox": [-122.3395092802915, 47.6199605197085, -122.3368113197085, 47.62265848029149], "geometry": {"type": "Point", "coordinates": [-122.3381603, 47.6213095]}}, {"type": "Feature", "properties": {"Business Name": "JACKSONS #654", "Address": "10 W Denny Way, Seattle, WA 98109, USA"}, "bbox": [-122.3585381302915, 47.6172564697085, -122.3558401697085, 47.6199544302915], "geometry": {"type": "Point", "coordinates": [-122.3571903, 47.6185992]}}, {"type": "Feature", "properties": {"Business Name": "KIGO KITCHEN", "Address": "210 Westlake Ave N, Seattle, WA 98109, USA"}, "bbox": [-122.3395118802915, 47.6189208197085, -122.3368139197085, 47.6216187802915], "geometry": {"type": "Point", "coordinates": [-122.3381629, 47.6202698]}}, {"type": "Feature", "properties": {"Business Name": "QFC # 881  DELI / BAKERY", "Address": "500 Mercer St, Seattle, WA 98109, USA"}, "bbox": [-122.3485745802915, 47.6233850197085, -122.3458766197085, 47.6260829802915], "geometry": {"type": "Point", "coordinates": [-122.3472256, 47.624734]}}, {"type": "Feature", "properties": {"Business Name": "ROARING BOWL", "Address": "516 1st Ave N, Seattle, WA 98109, USA"}, "bbox": [-122.3565861802915, 47.6224726197085, -122.3538882197085, 47.6251705802915], "geometry": {"type": "Point", "coordinates": [-122.3552372, 47.6238216]}}, {"type": "Feature", "properties": {"Business Name": "SHELL - DENNY WAY", "Address": "620 Denny Way, Seattle, WA 98109, USA"}, "bbox": [-122.3454437802915, 47.6175587197085, -122.3427458197085, 47.6202566802915], "geometry": {"type": "Point", "coordinates": [-122.3440948, 47.6189077]}}, {"type": "Feature", "properties": {"Business Name": "TACO DEL MAR", "Address": "1165 Harrison St, Seattle, WA 98109, USA"}, "bbox": [-122.3348600302915, 47.6204700697085, -122.3321620697085, 47.6231680302915], "geometry": {"type": "Point", "coordinates": [-122.3335111, 47.621819]}}, {"type": "Feature", "properties": {"Business Name": "7-ELEVEN STORE #2360-14392B", "Address": "9 Nickerson St, Seattle, WA 98119, USA"}, "bbox": [-122.3586548802915, 47.6478657197085, -122.3559569197085, 47.65056368029149], "geometry": {"type": "Point", "coordinates": [-122.3573059, 47.64921469999999]}}, {"type": "Feature", "properties": {"Business Name": "AFC SUSHI @ METOPOLITAN MARKET#157", "Address": "100 Mercer St, Seattle, WA 98109, USA"}, "bbox": [-122.3561488802915, 47.6233912197085, -122.3534509197085, 47.6260891802915], "geometry": {"type": "Point", "coordinates": [-122.3547999, 47.6247402]}}, {"type": "Feature", "properties": {"Business Name": "ATLAS KITCHEN AND LOUNGE", "Address": "621 1/2 Queen Anne Ave N, Seattle, WA 98109, USA"}, "bbox": [-122.3584380802915, 47.62381001970849, -122.3557401197085, 47.62650798029149], "geometry": {"type": "Point", "coordinates": [-122.3570891, 47.625159]}}, {"type": "Feature", "properties": {"Business Name": "BANDITS BAR", "Address": "159 Denny Way, Seattle, WA 98109, USA"}, "bbox": [-122.3548714802915, 47.61692421970851, -122.3521735197085, 47.61962218029151], "geometry": {"type": "Point", "coordinates": [-122.3535225, 47.6182732]}}, {"type": "Feature", "properties": {"Business Name": "BAR HARBOR", "Address": "400 Fairview Ave N, Seattle, WA 98109, USA"}, "bbox": [-122.3352234802915, 47.6211566197085, -122.3325255197085, 47.62385458029149], "geometry": {"type": "Point", "coordinates": [-122.3338745, 47.6225056]}}, {"type": "Feature", "properties": {"Business Name": "BIG FOOD / CENTERHOUSE #208", "Address": "305 Harrison St, Seattle, WA 98109, USA"}, "bbox": [-122.3516243302915, 47.6191865697085, -122.3489263697085, 47.6218845302915], "geometry": {"type": "Point", "coordinates": [-122.3502753, 47.6205355]}}, {"type": "Feature", "properties": {"Business Name": "BON APPETIT/AMAZON", "Address": "202 Westlake Ave N, Seattle, WA 98109, USA"}, "bbox": [-122.3394259802915, 47.61869101970849, -122.3367280197085, 47.62138898029149], "geometry": {"type": "Point", "coordinates": [-122.338077, 47.62004]}}, {"type": "Feature", "properties": {"Business Name": "Bravehorse Tavern", "Address": "310 Terry Ave N, Seattle, WA 98109, USA"}, "bbox": [-122.3381119302915, 47.6201847697085, -122.3354139697085, 47.6228827302915], "geometry": {"type": "Point", "coordinates": [-122.3367629, 47.6215337]}}, {"type": "Feature", "properties": {"Business Name": "BYEN BAKERI", "Address": "15 Nickerson St d, Seattle, WA 98109, USA"}, "bbox": [-122.3582589802915, 47.64791511970849, -122.3555610197085, 47.65061308029149], "geometry": {"type": "Point", "coordinates": [-122.35691, 47.6492641]}}, {"type": "Feature", "properties": {"Business Name": "CAFFE TORINO", "Address": "422 Yale Ave N, Seattle, WA 98109, USA"}, "bbox": [-122.3314177302915, 47.6211169697085, -122.3287197697085, 47.62381493029149], "geometry": {"type": "Point", "coordinates": [-122.3300688, 47.622466]}}, {"type": "Feature", "properties": {"Business Name": "CHIPOTLE MEXICAN GRILL #2228", "Address": "212 Westlake Ave N #101, Seattle, WA 98109, USA"}, "bbox": [-122.3394217802915, 47.61902611970851, -122.3367238197085, 47.62172408029151], "geometry": {"type": "Point", "coordinates": [-122.3380728, 47.6203751]}}, {"type": "Feature", "properties": {"Business Name": "CRAFTWORKS COFFEE", "Address": "110 Republican St, Seattle, WA 98109, USA"}, "bbox": [-122.3559589802915, 47.62193801970849, -122.3532610197085, 47.62463598029149], "geometry": {"type": "Point", "coordinates": [-122.35461, 47.623287]}}, {"type": "Feature", "properties": {"Business Name": "EL CORAZON", "Address": "109 Eastlake Ave E, Seattle, WA 98109, USA"}, "bbox": [-122.3307223802915, 47.6172844197085, -122.3280244197085, 47.6199823802915], "geometry": {"type": "Point", "coordinates": [-122.3293734, 47.6186334]}}, {"type": "Feature", "properties": {"Business Name": "EMERALD CITY SMOOTHIE", "Address": "1835 Queen Anne Ave N, Seattle, WA 98109, USA"}, "bbox": [-122.3586931802915, 47.6344206697085, -122.3559952197085, 47.6371186302915], "geometry": {"type": "Point", "coordinates": [-122.3573442, 47.6357696]}}, {"type": "Feature", "properties": {"Business Name": "FLYING FISH", "Address": "300 Westlake Ave N, Seattle, WA 98109, USA"}, "bbox": [-122.3395424802915, 47.61973681970849, -122.3368445197085, 47.62243478029149], "geometry": {"type": "Point", "coordinates": [-122.3381935, 47.6210858]}}, {"type": "Feature", "properties": {"Business Name": "GOLDINBLACK", "Address": "621 Queen Anne Ave N, Seattle, WA 98109, USA"}, "bbox": [-122.3583630802915, 47.6239003197085, -122.3556651197085, 47.6265982802915], "geometry": {"type": "Point", "coordinates": [-122.3570141, 47.6252493]}}, {"type": "Feature", "properties": {"Business Name": "GRECIAN CORNER", "Address": "100 4th Ave N, Seattle, WA 98109, USA"}, "bbox": [-122.3498746802915, 47.6176242197085, -122.3471767197085, 47.6203221802915], "geometry": {"type": "Point", "coordinates": [-122.3485257, 47.6189732]}}, {"type": "Feature", "properties": {"Business Name": "HAY SCHOOL", "Address": "201 Garfield St, Seattle, WA 98109, USA"}, "bbox": [-122.3534616802915, 47.63150801970851, -122.3507637197085, 47.6342059802915], "geometry": {"type": "Point", "coordinates": [-122.3521127, 47.632857]}}, {"type": "Feature", "properties": {"Business Name": "HERKIMER COFFEE", "Address": "901 Dexter Ave N, Seattle, WA 98109, USA"}, "bbox": [-122.3439268802915, 47.6258994197085, -122.3412289197085, 47.6285973802915], "geometry": {"type": "Point", "coordinates": [-122.3425779, 47.6272484]}}, {"type": "Feature", "properties": {"Business Name": "HURRY CURRY OF TOKYO", "Address": "825 Harrison St, Seattle, WA 98109, USA"}, "bbox": [-122.3418501802915, 47.6206923697085, -122.3391522197085, 47.6233903302915], "geometry": {"type": "Point", "coordinates": [-122.3405012, 47.6220477]}}, {"type": "Feature", "properties": {"Business Name": "HWC MERLAKE, LLC", "Address": "513 Westlake Ave N, Seattle, WA 98109, USA"}, "bbox": [-122.3399163802915, 47.62226211970849, -122.3372184197085, 47.62496008029149], "geometry": {"type": "Point", "coordinates": [-122.3385674, 47.6236111]}}, {"type": "Feature", "properties": {"Business Name": "HYATT HOUSE SEATTLE/DOWNTOW - RESTAURANT", "Address": "201 5th Ave N, Seattle, WA 98109, USA"}, "bbox": [-122.3493573302915, 47.6187897697085, -122.3466593697085, 47.6214877302915], "geometry": {"type": "Point", "coordinates": [-122.3480084, 47.6201387]}}, {"type": "Feature", "properties": {"Business Name": "KEY ARENA - SEATTLE ORIENTAL (STAND 104)", "Address": "305 Harrison St, Seattle, WA 98109, USA"}, "bbox": [-122.3516243302915, 47.6191865697085, -122.3489263697085, 47.6218845302915], "geometry": {"type": "Point", "coordinates": [-122.3502753, 47.6205355]}}, {"type": "Feature", "properties": {"Business Name": "LA MARZOCCO EXPERIENCE LLC", "Address": "472 1st Ave N, Seattle, WA 98109, USA"}, "bbox": [-122.3564209802915, 47.6217010197085, -122.3537230197085, 47.6243989802915], "geometry": {"type": "Point", "coordinates": [-122.355072, 47.62305]}}, {"type": "Feature", "properties": {"Business Name": "LIL WOODYS", "Address": "1091 Thomas St, Seattle, WA 98109, USA"}, "bbox": [-122.3373147802915, 47.61921381970849, -122.3346168197085, 47.62191178029149], "geometry": {"type": "Point", "coordinates": [-122.3359658, 47.62056279999999]}}, {"type": "Feature", "properties": {"Business Name": "MARRIOTT RESIDENCE INN", "Address": "800 Fairview Ave N, Seattle, WA 98109, USA"}, "bbox": [-122.3346865802915, 47.62522191970849, -122.3319886197085, 47.62791988029149], "geometry": {"type": "Point", "coordinates": [-122.3333376, 47.6265709]}}, {"type": "Feature", "properties": {"Business Name": "NICKERSON ST SALOON", "Address": "318 Nickerson St, Seattle, WA 98109, USA"}, "bbox": [-122.3515699802915, 47.6452820197085, -122.3488720197085, 47.6479799802915], "geometry": {"type": "Point", "coordinates": [-122.350221, 47.646631]}}, {"type": "Feature", "properties": {"Business Name": "PAGLIACCI /VALLEY STREET DELIVERY KITCHEN", "Address": "721 Aurora Ave N, Seattle, WA 98109, USA"}, "bbox": [-122.3453919802915, 47.6247270197085, -122.3426940197085, 47.6274249802915], "geometry": {"type": "Point", "coordinates": [-122.344043, 47.626076]}}, {"type": "Feature", "properties": {"Business Name": "PEMCO CAFE", "Address": "1300 Dexter Ave N, Seattle, WA 98109, USA"}, "bbox": [-122.3432730302915, 47.6296936197085, -122.3405750697085, 47.6323915802915], "geometry": {"type": "Point", "coordinates": [-122.341924, 47.6310426]}}, {"type": "Feature", "properties": {"Business Name": "PESO'S", "Address": "605 Queen Anne Ave N, Seattle, WA 98109, USA"}, "bbox": [-122.3583413802915, 47.6235408197085, -122.3556434197085, 47.62623878029149], "geometry": {"type": "Point", "coordinates": [-122.3569924, 47.6248898]}}, {"type": "Feature", "properties": {"Business Name": "PLAZA GARIBALDI, INC.", "Address": "129 1st Ave N, Seattle, WA 98109, USA"}, "bbox": [-122.3571007302915, 47.6180883197085, -122.3544027697085, 47.6207862802915], "geometry": {"type": "Point", "coordinates": [-122.3557518, 47.6194373]}}, {"type": "Feature", "properties": {"Business Name": "QFC # 881 - GROCERY", "Address": "500 Mercer St, Seattle, WA 98109, USA"}, "bbox": [-122.3485745802915, 47.6233850197085, -122.3458766197085, 47.6260829802915], "geometry": {"type": "Point", "coordinates": [-122.3472256, 47.624734]}}, {"type": "Feature", "properties": {"Business Name": "SEATTLE REPERTORY THEATRE-SNACK BAR", "Address": "155 Mercer St, Seattle, WA 98109, USA"}, "bbox": [-122.3549336802915, 47.6225529197085, -122.3522357197085, 47.6252508802915], "geometry": {"type": "Point", "coordinates": [-122.3535847, 47.6239019]}}, {"type": "Feature", "properties": {"Business Name": "SERIOUS PIE WESTTLAKE", "Address": "401 Westlake Ave N, Seattle, WA 98109, USA"}, "bbox": [-122.3402060802915, 47.6208683697085, -122.3375081197085, 47.6235663302915], "geometry": {"type": "Point", "coordinates": [-122.3388571, 47.6222174]}}, {"type": "Feature", "properties": {"Business Name": "SILVER CLOUD INN - LAKE UNION", "Address": "1150 Fairview Ave N, Seattle, WA 98109, USA"}, "bbox": [-122.3305472802915, 47.6282987197085, -122.3278493197085, 47.6309966802915], "geometry": {"type": "Point", "coordinates": [-122.3291983, 47.6296477]}}, {"type": "Feature", "properties": {"Business Name": "SKILLET SEATTLE CENTER, LLC", "Address": "305 Harrison St #220, Seattle, WA 98109, USA"}, "bbox": [-122.3516242802915, 47.6191865197085, -122.3489263197085, 47.62188448029149], "geometry": {"type": "Point", "coordinates": [-122.3502753, 47.6205355]}}, {"type": "Feature", "properties": {"Business Name": "SUBWAY", "Address": "1633 Westlake Ave N, Seattle, WA 98109, USA"}, "bbox": [-122.3421185802915, 47.6324269197085, -122.3394206197085, 47.6351248802915], "geometry": {"type": "Point", "coordinates": [-122.3407696, 47.6337759]}}, {"type": "Feature", "properties": {"Business Name": "TACO DEL MAR", "Address": "1205 Dexter Ave N, Seattle, WA 98109, USA"}, "bbox": [-122.3439415802915, 47.6286611197085, -122.3412436197085, 47.6313590802915], "geometry": {"type": "Point", "coordinates": [-122.3425926, 47.6300101]}}, {"type": "Feature", "properties": {"Business Name": "TAYLOR SHELLFISH", "Address": "124 Republican St, Seattle, WA 98109, USA"}, "bbox": [-122.3557867802915, 47.62208121970851, -122.3530888197085, 47.6247791802915], "geometry": {"type": "Point", "coordinates": [-122.3544378, 47.6234302]}}, {"type": "Feature", "properties": {"Business Name": "VEGGIE GRILL", "Address": "446 Terry Ave N, Seattle, WA 98109, USA"}, "bbox": [-122.3380453802915, 47.6216470197085, -122.3353474197085, 47.6243449802915], "geometry": {"type": "Point", "coordinates": [-122.3366964, 47.622996]}}, {"type": "Feature", "properties": {"Business Name": "WAREHOUSE 345 CAFE @ AMAZON BON APPETIT", "Address": "345 Boren Ave, Seattle, WA 98109, USA"}, "bbox": [-122.3378477802915, 47.6204317197085, -122.3351498197085, 47.6231296802915], "geometry": {"type": "Point", "coordinates": [-122.3364988, 47.6217807]}}, {"type": "Feature", "properties": {"Business Name": "ZOKA COFFEE ROASTER @ AMAZON BON APPETIT", "Address": "345 Boren Ave, Seattle, WA 98109, USA"}, "bbox": [-122.3378477802915, 47.6204317197085, -122.3351498197085, 47.6231296802915], "geometry": {"type": "Point", "coordinates": [-122.3364988, 47.6217807]}}, {"type": "Feature", "properties": {"Business Name": "METROPOLITAN MARKET/ BISTRO & CATERING", "Address": "100 Mercer St, Seattle, WA 98109, USA"}, "bbox": [-122.3561488802915, 47.6233912197085, -122.3534509197085, 47.6260891802915], "geometry": {"type": "Point", "coordinates": [-122.3547999, 47.6247402]}}, {"type": "Feature", "properties": {"Business Name": "SAM'S TAVERN", "Address": "400 9th Ave N, Seattle, WA 98109, USA"}, "bbox": [-122.3407319802915, 47.6209490197085, -122.3380340197085, 47.6236469802915], "geometry": {"type": "Point", "coordinates": [-122.339383, 47.622298]}}, {"type": "Feature", "properties": {"Business Name": "STREAMLINE TAVERN", "Address": "174 Roy St, Seattle, WA 98109, USA"}, "bbox": [-122.3544036302915, 47.6242617697085, -122.3517056697085, 47.62695973029149], "geometry": {"type": "Point", "coordinates": [-122.3530547, 47.6256108]}}, {"type": "Feature", "properties": {"Business Name": "BA BAR- SOUTH LAKE UNION", "Address": "500 Terry Ave N, Seattle, WA 98109, USA"}, "bbox": [-122.3380331802915, 47.62205031970849, -122.3353352197085, 47.62474828029149], "geometry": {"type": "Point", "coordinates": [-122.3366842, 47.6233993]}}, {"type": "Feature", "properties": {"Business Name": "BAMBOO GARDEN VEGETARIAN CUISINE", "Address": "364 Roy St, Seattle, WA 98109, USA"}, "bbox": [-122.3508096802915, 47.6242582697085, -122.3481117197085, 47.6269562302915], "geometry": {"type": "Point", "coordinates": [-122.3494607, 47.6256073]}}, {"type": "Feature", "properties": {"Business Name": "BARTELL DRUG CO #36", "Address": "1001 Mercer St, Seattle, WA 98109, USA"}, "bbox": [-122.3380989802915, 47.6227550197085, -122.3354010197085, 47.62545298029149], "geometry": {"type": "Point", "coordinates": [-122.33675, 47.624104]}}, {"type": "Feature", "properties": {"Business Name": "BARTELL DRUG CO #42", "Address": "600 1st Ave N, Seattle, WA 98109, USA"}, "bbox": [-122.3558504802915, 47.6235287197085, -122.3531525197085, 47.6262266802915], "geometry": {"type": "Point", "coordinates": [-122.3545015, 47.6248777]}}, {"type": "Feature", "properties": {"Business Name": "CAFE GRAB & GO -GATES FOUNDATION", "Address": "500 5th Ave N, Seattle, WA 98109, USA"}, "bbox": [-122.3477057302915, 47.6223516697085, -122.3450077697085, 47.6250496302915], "geometry": {"type": "Point", "coordinates": [-122.3463567, 47.6237006]}}, {"type": "Feature", "properties": {"Business Name": "COMM:ANGELICA'S CATERING", "Address": "521 1st Ave N, Seattle, WA 98109, USA"}, "bbox": [-122.3571343802915, 47.6225995197085, -122.3544364197085, 47.6252974802915], "geometry": {"type": "Point", "coordinates": [-122.3557854, 47.6239485]}}, {"type": "Feature", "properties": {"Business Name": "EAT THAI CUISINE", "Address": "101 Nickerson St, Seattle, WA 98109, USA"}, "bbox": [-122.3567603802915, 47.6470621197085, -122.3540624197085, 47.6497600802915], "geometry": {"type": "Point", "coordinates": [-122.3554114, 47.6484111]}}, {"type": "Feature", "properties": {"Business Name": "EL CHUPACABRA", "Address": "901 Fairview Ave N, Seattle, WA 98109, USA"}, "bbox": [-122.3351421302915, 47.6265951697085, -122.3324441697085, 47.6292931302915], "geometry": {"type": "Point", "coordinates": [-122.3337932, 47.62794419999999]}}, {"type": "Feature", "properties": {"Business Name": "ELTANA", "Address": "820 Thomas St, Seattle, WA 98109, USA"}, "bbox": [-122.3421487802915, 47.6198757197085, -122.3394508197085, 47.6225736802915], "geometry": {"type": "Point", "coordinates": [-122.3407998, 47.6212247]}}, {"type": "Feature", "properties": {"Business Name": "EVERGREENS SALAD", "Address": "1091 Thomas St, Seattle, WA 98109, USA"}, "bbox": [-122.3373147802915, 47.61921381970849, -122.3346168197085, 47.62191178029149], "geometry": {"type": "Point", "coordinates": [-122.3359658, 47.62056279999999]}}, {"type": "Feature", "properties": {"Business Name": "HILL TOP ALE HOUSE", "Address": "2129 Queen Anne Ave N, Seattle, WA 98109, USA"}, "bbox": [-122.3586339802915, 47.63671841970849, -122.3559360197085, 47.63941638029149], "geometry": {"type": "Point", "coordinates": [-122.357285, 47.6380674]}}, {"type": "Feature", "properties": {"Business Name": "JIMMY JOHN'S GOURMET SANDWICHES", "Address": "390 Westlake Ave N, Seattle, WA 98109, USA"}, "bbox": [-122.3395317802915, 47.6205274197085, -122.3368338197085, 47.6232253802915], "geometry": {"type": "Point", "coordinates": [-122.3381828, 47.6218764]}}, {"type": "Feature", "properties": {"Business Name": "KEY ARENA -LA CHOZA  (STAND 105) CERES", "Address": "305 Harrison St, Seattle, WA 98109, USA"}, "bbox": [-122.3516243302915, 47.6191865697085, -122.3489263697085, 47.6218845302915], "geometry": {"type": "Point", "coordinates": [-122.3502753, 47.6205355]}}, {"type": "Feature", "properties": {"Business Name": "KONVENE COFFEE", "Address": "500 Mercer St, Seattle, WA 98109, USA"}, "bbox": [-122.3485745802915, 47.6233850197085, -122.3458766197085, 47.6260829802915], "geometry": {"type": "Point", "coordinates": [-122.3472256, 47.624734]}}, {"type": "Feature", "properties": {"Business Name": "LE REVE BAKERY AND CAFE", "Address": "1805 Queen Anne Ave N #100, Seattle, WA 98109, USA"}, "bbox": [-122.3587255802915, 47.6336299197085, -122.3560276197085, 47.6363278802915], "geometry": {"type": "Point", "coordinates": [-122.3573766, 47.6349789]}}, {"type": "Feature", "properties": {"Business Name": "MECCA CAFE INC", "Address": "526 Queen Anne Ave N, Seattle, WA 98109, USA"}, "bbox": [-122.3577870802915, 47.6227492197085, -122.3550891197085, 47.6254471802915], "geometry": {"type": "Point", "coordinates": [-122.3564381, 47.6240982]}}, {"type": "Feature", "properties": {"Business Name": "OLYMPIC PIZZA", "Address": "1500 Queen Anne Ave N, Seattle, WA 98109, USA"}, "bbox": [-122.3580114302915, 47.6311107697085, -122.3553134697085, 47.6338087302915], "geometry": {"type": "Point", "coordinates": [-122.3566624, 47.6324598]}}, {"type": "Feature", "properties": {"Business Name": "OMNI GROUP", "Address": "1000 Dexter Ave N, Seattle, WA 98109, USA"}, "bbox": [-122.3432912302915, 47.6270351697085, -122.3405932697085, 47.62973313029149], "geometry": {"type": "Point", "coordinates": [-122.3419423, 47.6283841]}}, {"type": "Feature", "properties": {"Business Name": "PAGLIACCI", "Address": "550 Queen Anne Ave N, Seattle, WA 98109, USA"}, "bbox": [-122.3578654802915, 47.62307361970849, -122.3551675197085, 47.62577158029149], "geometry": {"type": "Point", "coordinates": [-122.3565165, 47.6244226]}}, {"type": "Feature", "properties": {"Business Name": "PEACH & THE PIG, THE (KC394)@206-476-8094", "Address": "109 Eastlake Ave E, Seattle, WA 98109, USA"}, "bbox": [-122.3307223802915, 47.6172844197085, -122.3280244197085, 47.6199823802915], "geometry": {"type": "Point", "coordinates": [-122.3293734, 47.6186334]}}, {"type": "Feature", "properties": {"Business Name": "RACHA NOODLES & THAI CUISINE", "Address": "537 1st Ave N, Seattle, WA 98109, USA"}, "bbox": [-122.3569211802915, 47.6230339197085, -122.3542232197085, 47.6257318802915], "geometry": {"type": "Point", "coordinates": [-122.3555722, 47.6243829]}}, {"type": "Feature", "properties": {"Business Name": "RED PAPAYA", "Address": "530 1st Ave N, Seattle, WA 98109, USA"}, "bbox": [-122.3564000802915, 47.6227697197085, -122.3537021197085, 47.6254676802915], "geometry": {"type": "Point", "coordinates": [-122.3550511, 47.6241187]}}, {"type": "Feature", "properties": {"Business Name": "SAM'S MEDITERRANEAN C & S LLC", "Address": "15 Nickerson St f, Seattle, WA 98109, USA"}, "bbox": [-122.3582589802915, 47.64791511970849, -122.3555610197085, 47.65061308029149], "geometry": {"type": "Point", "coordinates": [-122.35691, 47.6492641]}}, {"type": "Feature", "properties": {"Business Name": "SEATTLE ELKS #92", "Address": "3014 3rd Ave N, Seattle, WA 98109, USA"}, "bbox": [-122.3522965302915, 47.64610516970849, -122.3495985697085, 47.64880313029149], "geometry": {"type": "Point", "coordinates": [-122.3509475, 47.6474541]}}, {"type": "Feature", "properties": {"Business Name": "SERVERY/ESPRESSO BAR BON APPETIT @ GATES FOUNDATION", "Address": "500 5th Ave N, Seattle, WA 98109, USA"}, "bbox": [-122.3477057302915, 47.6223516697085, -122.3450077697085, 47.6250496302915], "geometry": {"type": "Point", "coordinates": [-122.3463567, 47.6237006]}}, {"type": "Feature", "properties": {"Business Name": "SKY CAFE - O'DECK @ THE SPACE NEEDLE", "Address": "219 4th Ave N, Seattle, WA 98109, USA"}, "bbox": [-122.3504076302915, 47.6182424697085, -122.3477096697085, 47.6209404302915], "geometry": {"type": "Point", "coordinates": [-122.3490521, 47.619596]}}, {"type": "Feature", "properties": {"Business Name": "STARBUCKS COFFEE #3204", "Address": "305 Harrison St, Seattle, WA 98109, USA"}, "bbox": [-122.3516243302915, 47.6191865697085, -122.3489263697085, 47.6218845302915], "geometry": {"type": "Point", "coordinates": [-122.3502753, 47.6205355]}}, {"type": "Feature", "properties": {"Business Name": "SUBWAY #27237", "Address": "100 4th Ave N #120, Seattle, WA 98109, USA"}, "bbox": [-122.3498746802915, 47.6176242197085, -122.3471767197085, 47.6203221802915], "geometry": {"type": "Point", "coordinates": [-122.3485257, 47.6189732]}}, {"type": "Feature", "properties": {"Business Name": "YING THAI KITCHEN , LLC", "Address": "2220 Queen Anne Ave N, Seattle, WA 98109, USA"}, "bbox": [-122.3579507302915, 47.63770281970851, -122.3552527697085, 47.64040078029151], "geometry": {"type": "Point", "coordinates": [-122.3566018, 47.6390518]}}, {"type": "Feature", "properties": {"Business Name": "ZEEKS PIZZA INC", "Address": "41 Dravus St, Seattle, WA 98109, USA"}, "bbox": [-122.3572384802915, 47.6471227197085, -122.3545405197085, 47.6498206802915], "geometry": {"type": "Point", "coordinates": [-122.3558895, 47.64847169999999]}}, {"type": "Feature", "properties": {"Business Name": "TEN SUSHI", "Address": "500 Mercer St #2, Seattle, WA 98109, USA"}, "bbox": [-122.3485745802915, 47.6233850197085, -122.3458766197085, 47.6260829802915], "geometry": {"type": "Point", "coordinates": [-122.3472256, 47.624734]}}, {"type": "Feature", "properties": {"Business Name": "TIN LIZZIE LOUNGE @ MARQUEEN HOTEL", "Address": "600 Queen Anne Ave N, Seattle, WA 98109, USA"}, "bbox": [-122.3578608802915, 47.6236872197085, -122.3551629197085, 47.6263851802915], "geometry": {"type": "Point", "coordinates": [-122.3565119, 47.6250362]}}, {"type": "Feature", "properties": {"Business Name": "BETTY", "Address": "1507 Queen Anne Ave N, Seattle, WA 98109, USA"}, "bbox": [-122.3586501802915, 47.6313748197085, -122.3559522197085, 47.6340727802915], "geometry": {"type": "Point", "coordinates": [-122.3573012, 47.6327238]}}, {"type": "Feature", "properties": {"Business Name": "BOUNTY KITCHEN", "Address": "7 Boston St, Seattle, WA 98109, USA"}, "bbox": [-122.3579957802915, 47.63686946970849, -122.3552978197085, 47.63956743029149], "geometry": {"type": "Point", "coordinates": [-122.3566468, 47.6382185]}}, {"type": "Feature", "properties": {"Business Name": "BRELLA'S @ BEST WESTERN EXECUTIVE INN", "Address": "200 Taylor Ave N, Seattle, WA 98109, USA"}, "bbox": [-122.3472873302915, 47.61909766970849, -122.3445893697085, 47.62179563029149], "geometry": {"type": "Point", "coordinates": [-122.3459383, 47.6204466]}}, {"type": "Feature", "properties": {"Business Name": "CHINA HARBOR RESTAURANT", "Address": "2040 Westlake Ave N, Seattle, WA 98109, USA"}, "bbox": [-122.3412178802915, 47.63604556970851, -122.3385199197085, 47.6387435302915], "geometry": {"type": "Point", "coordinates": [-122.3398689, 47.6373946]}}, {"type": "Feature", "properties": {"Business Name": "EMERALD GRILL (HOLIDAY INN)", "Address": "211 Dexter Ave N, Seattle, WA 98109, USA"}, "bbox": [-122.3441586302915, 47.6189591197085, -122.3414606697085, 47.6216570802915], "geometry": {"type": "Point", "coordinates": [-122.3428096, 47.6203081]}}, {"type": "Feature", "properties": {"Business Name": "FEIERABEND", "Address": "422 Yale Ave N, Seattle, WA 98109, USA"}, "bbox": [-122.3314177302915, 47.6211169697085, -122.3287197697085, 47.62381493029149], "geometry": {"type": "Point", "coordinates": [-122.3300688, 47.622466]}}, {"type": "Feature", "properties": {"Business Name": "HOME DELI & GROCERY", "Address": "500 Minor Ave N, Seattle, WA 98109, USA"}, "bbox": [-122.3341749802915, 47.62188541970851, -122.3314770197085, 47.6245833802915], "geometry": {"type": "Point", "coordinates": [-122.332826, 47.6232344]}}, {"type": "Feature", "properties": {"Business Name": "JUICY CAFE", "Address": "400 Fairview Ave N #108, Seattle, WA 98109, USA"}, "bbox": [-122.3352234802915, 47.6211566197085, -122.3325255197085, 47.62385458029149], "geometry": {"type": "Point", "coordinates": [-122.3338745, 47.6225056]}}, {"type": "Feature", "properties": {"Business Name": "METROPOLITAN DELI", "Address": "1255 Republican St, Seattle, WA 98109, USA"}, "bbox": [-122.3328974802915, 47.6216781197085, -122.3301995197085, 47.6243760802915], "geometry": {"type": "Point", "coordinates": [-122.3315485, 47.62302709999999]}}, {"type": "Feature", "properties": {"Business Name": "MOLLUSK", "Address": "803 Dexter Ave N, Seattle, WA 98109, USA"}, "bbox": [-122.3439630802915, 47.62553321970849, -122.3412651197085, 47.62823118029149], "geometry": {"type": "Point", "coordinates": [-122.3426141, 47.6268822]}}, {"type": "Feature", "properties": {"Business Name": "RIGOLETTO", "Address": "451 Yale Ave N, Seattle, WA 98109, USA"}, "bbox": [-122.3319124802915, 47.6212754197085, -122.3292145197085, 47.6239733802915], "geometry": {"type": "Point", "coordinates": [-122.3305635, 47.6226244]}}, {"type": "Feature", "properties": {"Business Name": "RUINS INC", "Address": "570 Roy St, Seattle, WA 98109, USA"}, "bbox": [-122.3468618802915, 47.6243380197085, -122.3441639197085, 47.6270359802915], "geometry": {"type": "Point", "coordinates": [-122.3455129, 47.625687]}}, {"type": "Feature", "properties": {"Business Name": "VICTORY LOUNGE", "Address": "433 Eastlake Ave E, Seattle, WA 98109, USA"}, "bbox": [-122.3308800802915, 47.6216544197085, -122.3281821197085, 47.6243523802915], "geometry": {"type": "Point", "coordinates": [-122.3295311, 47.62300339999999]}}, {"type": "Feature", "properties": {"Business Name": "LUNCHBOX LABORATORY", "Address": "1253 Thomas St, Seattle, WA 98109, USA"}, "bbox": [-122.3327048802915, 47.6192820197085, -122.3300069197085, 47.6219799802915], "geometry": {"type": "Point", "coordinates": [-122.3313559, 47.620631]}}, {"type": "Feature", "properties": {"Business Name": "LYON'S GROCERY", "Address": "2100 Dexter Ave N, Seattle, WA 98109, USA"}, "bbox": [-122.3445494802915, 47.6364457697085, -122.3418515197085, 47.6391437302915], "geometry": {"type": "Point", "coordinates": [-122.3432005, 47.63779479999999]}}, {"type": "Feature", "properties": {"Business Name": "MARINEPOLIS SUSHILAND", "Address": "803 5th Ave N, Seattle, WA 98109, USA"}, "bbox": [-122.3493063302915, 47.62513741970851, -122.3466083697085, 47.6278353802915], "geometry": {"type": "Point", "coordinates": [-122.3479573, 47.6264864]}}, {"type": "Feature", "properties": {"Business Name": "SPACE NEEDLE  RESTAURANT", "Address": "219 4th Ave N, Seattle, WA 98109, USA"}, "bbox": [-122.3504076302915, 47.6182424697085, -122.3477096697085, 47.6209404302915], "geometry": {"type": "Point", "coordinates": [-122.3490521, 47.619596]}}, {"type": "Feature", "properties": {"Business Name": "TAIWAN BISTRO", "Address": "352 Roy St, Seattle, WA 98109, USA"}, "bbox": [-122.3512647802915, 47.6242378197085, -122.3485668197085, 47.6269357802915], "geometry": {"type": "Point", "coordinates": [-122.3499158, 47.6255868]}}, {"type": "Feature", "properties": {"Business Name": "BLUE WATER BURRITO", "Address": "515 Queen Anne Ave N, Seattle, WA 98109, USA"}, "bbox": [-122.3583646802915, 47.62244431970849, -122.3556667197085, 47.62514228029149], "geometry": {"type": "Point", "coordinates": [-122.3570157, 47.6237933]}}, {"type": "Feature", "properties": {"Business Name": "GREAT NABOB, THE", "Address": "819 5th Ave N, Seattle, WA 98109, USA"}, "bbox": [-122.3491607802915, 47.6255378197085, -122.3464628197085, 47.6282357802915], "geometry": {"type": "Point", "coordinates": [-122.3478118, 47.6268868]}}, {"type": "Feature", "properties": {"Business Name": "PORTAGE BAY CAFE", "Address": "371 Terry Ave N, Seattle, WA 98109, USA"}, "bbox": [-122.3388162802915, 47.6204337197085, -122.3361183197085, 47.6231316802915], "geometry": {"type": "Point", "coordinates": [-122.3374673, 47.6217827]}}, {"type": "Feature", "properties": {"Business Name": "PREMIER MEAT PIES, LLC", "Address": "305 Harrison St, Seattle, WA 98109, USA"}, "bbox": [-122.3516243302915, 47.6191865697085, -122.3489263697085, 47.6218845302915], "geometry": {"type": "Point", "coordinates": [-122.3502753, 47.6205355]}}, {"type": "Feature", "properties": {"Business Name": "ROW HOUSE CAFE", "Address": "1170 Republican St, Seattle, WA 98109, USA"}, "bbox": [-122.3348023802915, 47.6219258197085, -122.3321044197085, 47.6246237802915], "geometry": {"type": "Point", "coordinates": [-122.3334534, 47.6232748]}}, {"type": "Feature", "properties": {"Business Name": "SPORT RESTAURANT AND BAR", "Address": "140 4th Ave N, Seattle, WA 98109, USA"}, "bbox": [-122.3496270802915, 47.6178891697085, -122.3469291197085, 47.6205871302915], "geometry": {"type": "Point", "coordinates": [-122.3482781, 47.6192381]}}, {"type": "Feature", "properties": {"Business Name": "TRAVELODGE  SEATTLE CENTER", "Address": "200 6th Ave N, Seattle, WA 98109, USA"}, "bbox": [-122.3459864802915, 47.6187924697085, -122.3432885197085, 47.6214904302915], "geometry": {"type": "Point", "coordinates": [-122.3446375, 47.6201414]}}, {"type": "Feature", "properties": {"Business Name": "WESTLAKE DELI & GROCERY", "Address": "2132 Westlake Ave N, Seattle, WA 98109, USA"}, "bbox": [-122.3418110802915, 47.6372309197085, -122.3391131197085, 47.6399288802915], "geometry": {"type": "Point", "coordinates": [-122.3404621, 47.6385799]}}, {"type": "Feature", "properties": {"Business Name": "TERIYAKI BOWL", "Address": "718 Taylor Ave N, Seattle, WA 98109, USA"}, "bbox": [-122.3471051802915, 47.6246220197085, -122.3444072197085, 47.6273199802915], "geometry": {"type": "Point", "coordinates": [-122.3457562, 47.625971]}}, {"type": "Feature", "properties": {"Business Name": "YELLOW DOT CAFE", "Address": "301 Westlake Ave N, Seattle, WA 98109, USA"}, "bbox": [-122.3401915802915, 47.6197016197085, -122.3374936197085, 47.6223995802915], "geometry": {"type": "Point", "coordinates": [-122.3388426, 47.6210506]}}, {"type": "Feature", "properties": {"Business Name": "BLUE MOON BURGERS", "Address": "920 Republican St, Seattle, WA 98109, USA"}, "bbox": [-122.3393069802915, 47.6220631197085, -122.3366090197085, 47.6247610802915], "geometry": {"type": "Point", "coordinates": [-122.337958, 47.6234121]}}, {"type": "Feature", "properties": {"Business Name": "CHUTNEYS QUEEN ANNE", "Address": "519 1st Ave N, Seattle, WA 98109, USA"}, "bbox": [-122.3571352802915, 47.62253731970851, -122.3544373197085, 47.62523528029151], "geometry": {"type": "Point", "coordinates": [-122.3557863, 47.6238863]}}, {"type": "Feature", "properties": {"Business Name": "LOCAL PUBLIC EATERY (SEATTLE) LLC", "Address": "404 Terry Ave N, Seattle, WA 98109, USA"}, "bbox": [-122.3382448802915, 47.62090481970849, -122.3355469197085, 47.62360278029149], "geometry": {"type": "Point", "coordinates": [-122.3368959, 47.6222538]}}, {"type": "Feature", "properties": {"Business Name": "MASONRY, THE", "Address": "20 Roy St, Seattle, WA 98109, USA"}, "bbox": [-122.3571272802915, 47.6242805197085, -122.3544293197085, 47.6269784802915], "geometry": {"type": "Point", "coordinates": [-122.3557783, 47.6256295]}}, {"type": "Feature", "properties": {"Business Name": "MEZCALERIA OAXACA", "Address": "2123 Queen Anne Ave N, Seattle, WA 98109, USA"}, "bbox": [-122.3586158802915, 47.63652771970851, -122.3559179197085, 47.63922568029151], "geometry": {"type": "Point", "coordinates": [-122.3572669, 47.63787670000001]}}, {"type": "Feature", "properties": {"Business Name": "SUBWAY SANDWICHES", "Address": "305 Harrison St, Seattle, WA 98109, USA"}, "bbox": [-122.3516243302915, 47.6191865697085, -122.3489263697085, 47.6218845302915], "geometry": {"type": "Point", "coordinates": [-122.3502753, 47.6205355]}}, {"type": "Feature", "properties": {"Business Name": "THAI FUSION RESTAURANT", "Address": "15 Nickerson St, Seattle, WA 98109, USA"}, "bbox": [-122.3582590302915, 47.6479151197085, -122.3555610697085, 47.6506130802915], "geometry": {"type": "Point", "coordinates": [-122.35691, 47.6492641]}}, {"type": "Feature", "properties": {"Business Name": "KOIBITO SUSHI & TERIYAKI", "Address": "1201 Dexter Ave N, Seattle, WA 98109, USA"}, "bbox": [-122.3439514802915, 47.6284954697085, -122.3412535197085, 47.6311934302915], "geometry": {"type": "Point", "coordinates": [-122.3426025, 47.6298444]}}, {"type": "Feature", "properties": {"Business Name": "TRIUMPH BAR", "Address": "114 Republican St, Seattle, WA 98109, USA"}, "bbox": [-122.3558211802915, 47.6222376197085, -122.3531232197085, 47.62493558029149], "geometry": {"type": "Point", "coordinates": [-122.3544722, 47.6235866]}}, {"type": "Feature", "properties": {"Business Name": "I LOVE SUSHI ON LAKE UNION", "Address": "1001 Fairview Ave N #1800, Seattle, WA 98109, USA"}, "bbox": [-122.3330877802915, 47.6274214197085, -122.3303898197085, 47.6301193802915], "geometry": {"type": "Point", "coordinates": [-122.3317388, 47.6287704]}}, {"type": "Feature", "properties": {"Business Name": "IKIIKI", "Address": "12 Boston St, Seattle, WA 98109, USA"}, "bbox": [-122.3577780802915, 47.6372138197085, -122.3550801197085, 47.6399117802915], "geometry": {"type": "Point", "coordinates": [-122.3564291, 47.6385628]}}, {"type": "Feature", "properties": {"Business Name": "FIREFLY - BON APPETIT@NESSIE BLDG", "Address": "515 Westlake Ave N, Seattle, WA 98109, USA"}, "bbox": [-122.3402515802915, 47.6228304197085, -122.3375536197085, 47.6255283802915], "geometry": {"type": "Point", "coordinates": [-122.3389026, 47.6241794]}}, {"type": "Feature", "properties": {"Business Name": "YUMMY TERYAKI", "Address": "622 1st Ave N, Seattle, WA 98109, USA"}, "bbox": [-122.3564718802915, 47.62396931970849, -122.3537739197085, 47.62666728029149], "geometry": {"type": "Point", "coordinates": [-122.3551229, 47.6253183]}}, {"type": "Feature", "properties": {"Business Name": "CITIZEN", "Address": "706 Taylor Ave N, Seattle, WA 98109, USA"}, "bbox": [-122.3473133302915, 47.6243507197085, -122.3446153697085, 47.6270486802915], "geometry": {"type": "Point", "coordinates": [-122.3459644, 47.6256997]}}, {"type": "Feature", "properties": {"Business Name": "MIO SUSHI INTERNATIONAL", "Address": "122 Westlake Ave N, Seattle, WA 98109, USA"}, "bbox": [-122.3394812802915, 47.6177739197085, -122.3367833197085, 47.6204718802915], "geometry": {"type": "Point", "coordinates": [-122.3381323, 47.6191229]}}]}